{"type": "FeatureCollection", "features": [{"type": "Feature", "properties": {"name": "Kempegowda (Majestic)", "lines": ["Purple Line", "Green Line"], "first_train_up": "05:00", "last_train_up": "23:00", "first_train_down": "05:00", "last_train_down": "23:00", "operational": true, "interchange": true}, "geometry": {"type": "Point", "coordinates": [77.5419, 12.9716]}}, {"type": "Feature", "properties": {"name": "Indiranagar", "lines": ["Purple Line"], "first_train_up": "05:20", "last_train_up": "22:50", "first_train_down": "05:20", "last_train_down": "22:50", "operational": true, "interchange": false}, "geometry": {"type": "Point", "coordinates": [77.6226, 12.9735]}}, {"type": "Feature", "properties": {"name": "KR Puram", "lines": ["Purple Line", "Blue Line"], "first_train_up": "05:30", "last_train_up": "22:45", "first_train_down": "05:30", "last_train_down": "22:45", "operational": true, "interchange": true}, "geometry": {"type": "Point", "coordinates": [77.6671, 12.9988]}}, {"type": "Feature", "properties": {"name": "Whitefield (Kadugodi)", "lines": ["Purple Line"], "first_train_up": "05:30", "last_train_up": "22:30", "first_train_down": "05:30", "last_train_down": "22:30", "operational": true, "interchange": false}, "geometry": {"type": "Point", "coordinates": [77.751, 13.0096]}}, {"type": "Feature", "properties": {"name": "Nagasandra", "lines": ["Green Line"], "first_train_up": "05:10", "last_train_up": "22:40", "first_train_down": "05:10", "last_train_down": "22:40", "operational": true, "interchange": false}, "geometry": {"type": "Point", "coordinates": [77.518, 13.057]}}, {"type": "Feature", "properties": {"name": "Silk Institute", "lines": ["Green Line"], "first_train_up": "05:30", "last_train_up": "22:30", "first_train_down": "05:30", "last_train_down": "22:30", "operational": true, "interchange": false}, "geometry": {"type": "Point", "coordinates": [77.52, 12.852]}}, {"type": "Feature", "properties": {"name": "Central Silk Board", "lines": ["Yellow Line"], "first_train_up": "05:15", "last_train_up": "22:30", "first_train_down": "05:15", "last_train_down": "22:30", "operational": true, "interchange": true}, "geometry": {"type": "Point", "coordinates": [77.622, 12.916]}}, {"type": "Feature", "properties": {"name": "Electronic City", "lines": ["Yellow Line"], "first_train_up": "05:20", "last_train_up": "22:20", "first_train_down": "05:20", "last_train_down": "22:20", "operational": true, "interchange": false}, "geometry": {"type": "Point", "coordinates": [77.6535, 12.87]}}, {"type": "Feature", "properties": {"name": "Bommasandra", "lines": ["Yellow Line"], "first_train_up": "05:25", "last_train_up": "22:15", "first_train_down": "05:25", "last_train_down": "22:15", "operational": true, "interchange": false}, "geometry": {"type": "Point", "coordinates": [77.7, 12.8]}}, {"type": "Feature", "properties": {"name": "Kempegowda International Airport", "lines": ["Blue Line"], "first_train_up": null, "last_train_up": null, "first_train_down": null, "last_train_down": null, "operational": false, "interchange": false}, "geometry": {"type": "Point", "coordinates": [77.71, 13.21]}}]}